header:
  stamp:
    sec: 1749423568
    nanosec: 378825863
  frame_id: camera_color_optical_frame
detections:
- header:
    stamp:
      sec: 1749423568
      nanosec: 378825863
    frame_id: camera_color_optical_frame
  results:
  - hypothesis:
      class_id: Milk
      score: 0.0
    pose:
      pose:
        position:
          x: -0.04891513840003789
          y: 0.11489490135630448
          z: 0.7964019542327968
        orientation:
          x: 0.6394957690326648
          y: -0.48194523323091715
          z: -0.5203843932279634
          w: 0.2966041753584768
      covariance:
      - 0.0
      - 0.0
      - 0.0
      - 0.0
      - 0.0
      - 0.0
      - 0.0
      - 0.0
      - 0.0
      - 0.0
      - 0.0
      - 0.0
      - 0.0
      - 0.0
      - 0.0
      - 0.0
      - 0.0
      - 0.0
      - 0.0
      - 0.0
      - 0.0
      - 0.0
      - 0.0
      - 0.0
      - 0.0
      - 0.0
      - 0.0
      - 0.0
      - 0.0
      - 0.0
      - 0.0
      - 0.0
      - 0.0
      - 0.0
      - 0.0
      - 0.0
  bbox:
    center:
      position:
        x: -0.04891513840003789
        y: 0.11489490135630448
        z: 0.7964019542327968
      orientation:
        x: 0.6394957690326648
        y: -0.48194523323091715
        z: -0.5203843932279634
        w: 0.2966041753584768
    size:
      x: 0.1903580129146576
      y: 0.07326199859380722
      z: 0.07215499877929688
  id: ''
---
header:
  stamp:
    sec: 1749423569
    nanosec: 342980810
  frame_id: camera_color_optical_frame
detections:
- header:
    stamp:
      sec: 1749423569
      nanosec: 342980810
    frame_id: camera_color_optical_frame
  results:
  - hypothesis:
      class_id: Milk
      score: 0.0
    pose:
      pose:
        position:
          x: -0.04879268471907688
          y: 0.11450432748845155
          z: 0.7934121771923615
        orientation:
          x: 0.6401377903459176
          y: -0.4808566885003567
          z: -0.5196592797753912
          w: 0.2982527241096699
      covariance:
      - 0.0
      - 0.0
      - 0.0
      - 0.0
      - 0.0
      - 0.0
      - 0.0
      - 0.0
      - 0.0
      - 0.0
      - 0.0
      - 0.0
      - 0.0
      - 0.0
      - 0.0
      - 0.0
      - 0.0
      - 0.0
      - 0.0
      - 0.0
      - 0.0
      - 0.0
      - 0.0
      - 0.0
      - 0.0
      - 0.0
      - 0.0
      - 0.0
      - 0.0
      - 0.0
      - 0.0
      - 0.0
      - 0.0
      - 0.0
      - 0.0
      - 0.0
  bbox:
    center:
      position:
        x: -0.04879268471907688
        y: 0.11450432748845155
        z: 0.7934121771923615
      orientation:
        x: 0.6401377903459176
        y: -0.4808566885003567
        z: -0.5196592797753912
        w: 0.2982527241096699
    size:
      x: 0.1903580129146576
      y: 0.07326199859380722
      z: 0.07215499877929688
  id: ''
---
header:
  stamp:
    sec: 1749423570
    nanosec: 373626943
  frame_id: camera_color_optical_frame
detections:
- header:
    stamp:
      sec: 1749423570
      nanosec: 373626943
    frame_id: camera_color_optical_frame
  results:
  - hypothesis:
      class_id: Milk
      score: 0.0
    pose:
      pose:
        position:
          x: -0.049259826105263985
          y: 0.11549428537341969
          z: 0.7981053665037103
        orientation:
          x: 0.6389954479437056
          y: -0.4874264765301628
          z: -0.5136815760204263
          w: 0.3003855621393691
      covariance:
      - 0.0
      - 0.0
      - 0.0
      - 0.0
      - 0.0
      - 0.0
      - 0.0
      - 0.0
      - 0.0
      - 0.0
      - 0.0
      - 0.0
      - 0.0
      - 0.0
      - 0.0
      - 0.0
      - 0.0
      - 0.0
      - 0.0
      - 0.0
      - 0.0
      - 0.0
      - 0.0
      - 0.0
      - 0.0
      - 0.0
      - 0.0
      - 0.0
      - 0.0
      - 0.0
      - 0.0
      - 0.0
      - 0.0
      - 0.0
      - 0.0
      - 0.0
  bbox:
    center:
      position:
        x: -0.049259826105263985
        y: 0.11549428537341969
        z: 0.7981053665037103
      orientation:
        x: 0.6389954479437056
        y: -0.4874264765301628
        z: -0.5136815760204263
        w: 0.3003855621393691
    size:
      x: 0.1903580129146576
      y: 0.07326199859380722
      z: 0.07215499877929688
  id: ''
---
header:
  stamp:
    sec: 1749423571
    nanosec: 437430468
  frame_id: camera_color_optical_frame
detections:
- header:
    stamp:
      sec: 1749423571
      nanosec: 437430468
    frame_id: camera_color_optical_frame
  results:
  - hypothesis:
      class_id: Milk
      score: 0.0
    pose:
      pose:
        position:
          x: -0.04877060453326089
          y: 0.1149397000959777
          z: 0.7966212476375115
        orientation:
          x: 0.6392481105039014
          y: -0.4813759509301987
          z: -0.5201238161905909
          w: 0.2985134216657191
      covariance:
      - 0.0
      - 0.0
      - 0.0
      - 0.0
      - 0.0
      - 0.0
      - 0.0
      - 0.0
      - 0.0
      - 0.0
      - 0.0
      - 0.0
      - 0.0
      - 0.0
      - 0.0
      - 0.0
      - 0.0
      - 0.0
      - 0.0
      - 0.0
      - 0.0
      - 0.0
      - 0.0
      - 0.0
      - 0.0
      - 0.0
      - 0.0
      - 0.0
      - 0.0
      - 0.0
      - 0.0
      - 0.0
      - 0.0
      - 0.0
      - 0.0
      - 0.0
  bbox:
    center:
      position:
        x: -0.04877060453326089
        y: 0.1149397000959777
        z: 0.7966212476375115
      orientation:
        x: 0.6392481105039014
        y: -0.4813759509301987
        z: -0.5201238161905909
        w: 0.2985134216657191
    size:
      x: 0.1903580129146576
      y: 0.07326199859380722
      z: 0.07215499877929688
  id: ''
---
header:
  stamp:
    sec: 1749423572
    nanosec: 334974990
  frame_id: camera_color_optical_frame
detections:
- header:
    stamp:
      sec: 1749423572
      nanosec: 334974990
    frame_id: camera_color_optical_frame
  results:
  - hypothesis:
      class_id: Milk
      score: 0.0
    pose:
      pose:
        position:
          x: -0.0488796623173752
          y: 0.11493373759380994
          z: 0.7928492932479333
        orientation:
          x: 0.6388912246664669
          y: -0.48349167305829904
          z: -0.5176489563605663
          w: 0.30015556484310846
      covariance:
      - 0.0
      - 0.0
      - 0.0
      - 0.0
      - 0.0
      - 0.0
      - 0.0
      - 0.0
      - 0.0
      - 0.0
      - 0.0
      - 0.0
      - 0.0
      - 0.0
      - 0.0
      - 0.0
      - 0.0
      - 0.0
      - 0.0
      - 0.0
      - 0.0
      - 0.0
      - 0.0
      - 0.0
      - 0.0
      - 0.0
      - 0.0
      - 0.0
      - 0.0
      - 0.0
      - 0.0
      - 0.0
      - 0.0
      - 0.0
      - 0.0
      - 0.0
  bbox:
    center:
      position:
        x: -0.0488796623173752
        y: 0.11493373759380994
        z: 0.7928492932479333
      orientation:
        x: 0.6388912246664669
        y: -0.48349167305829904
        z: -0.5176489563605663
        w: 0.30015556484310846
    size:
      x: 0.1903580129146576
      y: 0.07326199859380722
      z: 0.07215499877929688
  id: ''
---
header:
  stamp:
    sec: 1749423573
    nanosec: 531714735
  frame_id: camera_color_optical_frame
detections:
- header:
    stamp:
      sec: 1749423573
      nanosec: 531714735
    frame_id: camera_color_optical_frame
  results:
  - hypothesis:
      class_id: Milk
      score: 0.0
    pose:
      pose:
        position:
          x: -0.04902916088793081
          y: 0.11533547524263664
          z: 0.7960726957447942
        orientation:
          x: 0.6387556986434135
          y: -0.48466670608530416
          z: -0.517666344433229
          w: 0.2985144842451091
      covariance:
      - 0.0
      - 0.0
      - 0.0
      - 0.0
      - 0.0
      - 0.0
      - 0.0
      - 0.0
      - 0.0
      - 0.0
      - 0.0
      - 0.0
      - 0.0
      - 0.0
      - 0.0
      - 0.0
      - 0.0
      - 0.0
      - 0.0
      - 0.0
      - 0.0
      - 0.0
      - 0.0
      - 0.0
      - 0.0
      - 0.0
      - 0.0
      - 0.0
      - 0.0
      - 0.0
      - 0.0
      - 0.0
      - 0.0
      - 0.0
      - 0.0
      - 0.0
  bbox:
    center:
      position:
        x: -0.04902916088793081
        y: 0.11533547524263664
        z: 0.7960726957447942
      orientation:
        x: 0.6387556986434135
        y: -0.48466670608530416
        z: -0.517666344433229
        w: 0.2985144842451091
    size:
      x: 0.1903580129146576
      y: 0.07326199859380722
      z: 0.07215499877929688
  id: ''
---
header:
  stamp:
    sec: 1749423576
    nanosec: 290750003
  frame_id: camera_color_optical_frame
detections:
- header:
    stamp:
      sec: 1749423576
      nanosec: 290750003
    frame_id: camera_color_optical_frame
  results:
  - hypothesis:
      class_id: Milk
      score: 0.0
    pose:
      pose:
        position:
          x: -0.048712956866052724
          y: 0.11431633427727976
          z: 0.7933905890219285
        orientation:
          x: 0.6400224767536443
          y: -0.48014413360951885
          z: -0.521554311238249
          w: 0.2963341705563012
      covariance:
      - 0.0
      - 0.0
      - 0.0
      - 0.0
      - 0.0
      - 0.0
      - 0.0
      - 0.0
      - 0.0
      - 0.0
      - 0.0
      - 0.0
      - 0.0
      - 0.0
      - 0.0
      - 0.0
      - 0.0
      - 0.0
      - 0.0
      - 0.0
      - 0.0
      - 0.0
      - 0.0
      - 0.0
      - 0.0
      - 0.0
      - 0.0
      - 0.0
      - 0.0
      - 0.0
      - 0.0
      - 0.0
      - 0.0
      - 0.0
      - 0.0
      - 0.0
  bbox:
    center:
      position:
        x: -0.048712956866052724
        y: 0.11431633427727976
        z: 0.7933905890219285
      orientation:
        x: 0.6400224767536443
        y: -0.48014413360951885
        z: -0.521554311238249
        w: 0.2963341705563012
    size:
      x: 0.1903580129146576
      y: 0.07326199859380722
      z: 0.07215499877929688
  id: ''
---
header:
  stamp:
    sec: 1749423577
    nanosec: 288141336
  frame_id: camera_color_optical_frame
detections:
- header:
    stamp:
      sec: 1749423577
      nanosec: 288141336
    frame_id: camera_color_optical_frame
  results:
  - hypothesis:
      class_id: Milk
      score: 0.0
    pose:
      pose:
        position:
          x: -0.04852444413626163
          y: 0.11387117641178764
          z: 0.7895252809324015
        orientation:
          x: 0.6429838667331335
          y: -0.4785747118627443
          z: -0.5215268912251841
          w: 0.29248537401961544
      covariance:
      - 0.0
      - 0.0
      - 0.0
      - 0.0
      - 0.0
      - 0.0
      - 0.0
      - 0.0
      - 0.0
      - 0.0
      - 0.0
      - 0.0
      - 0.0
      - 0.0
      - 0.0
      - 0.0
      - 0.0
      - 0.0
      - 0.0
      - 0.0
      - 0.0
      - 0.0
      - 0.0
      - 0.0
      - 0.0
      - 0.0
      - 0.0
      - 0.0
      - 0.0
      - 0.0
      - 0.0
      - 0.0
      - 0.0
      - 0.0
      - 0.0
      - 0.0
  bbox:
    center:
      position:
        x: -0.04852444413626163
        y: 0.11387117641178764
        z: 0.7895252809324015
      orientation:
        x: 0.6429838667331335
        y: -0.4785747118627443
        z: -0.5215268912251841
        w: 0.29248537401961544
    size:
      x: 0.1903580129146576
      y: 0.07326199859380722
      z: 0.07215499877929688
  id: ''
---
header:
  stamp:
    sec: 1749423578
    nanosec: 365551540
  frame_id: camera_color_optical_frame
detections:
- header:
    stamp:
      sec: 1749423578
      nanosec: 365551540
    frame_id: camera_color_optical_frame
  results:
  - hypothesis:
      class_id: Milk
      score: 0.0
    pose:
      pose:
        position:
          x: -0.0489679527552516
          y: 0.1142726820095078
          z: 0.7899546434787885
        orientation:
          x: 0.643891719675539
          y: -0.4835450864075878
          z: -0.5165958538209315
          w: 0.2910606922265156
      covariance:
      - 0.0
      - 0.0
      - 0.0
      - 0.0
      - 0.0
      - 0.0
      - 0.0
      - 0.0
      - 0.0
      - 0.0
      - 0.0
      - 0.0
      - 0.0
      - 0.0
      - 0.0
      - 0.0
      - 0.0
      - 0.0
      - 0.0
      - 0.0
      - 0.0
      - 0.0
      - 0.0
      - 0.0
      - 0.0
      - 0.0
      - 0.0
      - 0.0
      - 0.0
      - 0.0
      - 0.0
      - 0.0
      - 0.0
      - 0.0
      - 0.0
      - 0.0
  bbox:
    center:
      position:
        x: -0.0489679527552516
        y: 0.1142726820095078
        z: 0.7899546434787885
      orientation:
        x: 0.643891719675539
        y: -0.4835450864075878
        z: -0.5165958538209315
        w: 0.2910606922265156
    size:
      x: 0.1903580129146576
      y: 0.07326199859380722
      z: 0.07215499877929688
  id: ''
---
header:
  stamp:
    sec: 1749423579
    nanosec: 463944748
  frame_id: camera_color_optical_frame
detections:
- header:
    stamp:
      sec: 1749423579
      nanosec: 463944748
    frame_id: camera_color_optical_frame
  results:
  - hypothesis:
      class_id: Milk
      score: 0.0
    pose:
      pose:
        position:
          x: -0.04923561877312707
          y: 0.11476700963076622
          z: 0.7924915176754377
        orientation:
          x: 0.6426052596976328
          y: -0.48673065522542575
          z: -0.5145695663592448
          w: 0.29218129791214315
      covariance:
      - 0.0
      - 0.0
      - 0.0
      - 0.0
      - 0.0
      - 0.0
      - 0.0
      - 0.0
      - 0.0
      - 0.0
      - 0.0
      - 0.0
      - 0.0
      - 0.0
      - 0.0
      - 0.0
      - 0.0
      - 0.0
      - 0.0
      - 0.0
      - 0.0
      - 0.0
      - 0.0
      - 0.0
      - 0.0
      - 0.0
      - 0.0
      - 0.0
      - 0.0
      - 0.0
      - 0.0
      - 0.0
      - 0.0
      - 0.0
      - 0.0
      - 0.0
  bbox:
    center:
      position:
        x: -0.04923561877312707
        y: 0.11476700963076622
        z: 0.7924915176754377
      orientation:
        x: 0.6426052596976328
        y: -0.48673065522542575
        z: -0.5145695663592448
        w: 0.29218129791214315
    size:
      x: 0.1903580129146576
      y: 0.07326199859380722
      z: 0.07215499877929688
  id: ''
---
