header:
  stamp:
    sec: 1749423597
    nanosec: 169565050
  frame_id: camera_color_optical_frame
detections:
- header:
    stamp:
      sec: 1749423597
      nanosec: 169565050
    frame_id: camera_color_optical_frame
  results:
  - hypothesis:
      class_id: OrangeJuice
      score: 0.0
    pose:
      pose:
        position:
          x: 0.10120089680740423
          y: 0.0931186947780322
          z: 0.7337705676745103
        orientation:
          x: -0.5777337198535991
          y: 0.25345028844850814
          z: 0.6819931562328501
          w: -0.3699622076388973
      covariance:
      - 0.0
      - 0.0
      - 0.0
      - 0.0
      - 0.0
      - 0.0
      - 0.0
      - 0.0
      - 0.0
      - 0.0
      - 0.0
      - 0.0
      - 0.0
      - 0.0
      - 0.0
      - 0.0
      - 0.0
      - 0.0
      - 0.0
      - 0.0
      - 0.0
      - 0.0
      - 0.0
      - 0.0
      - 0.0
      - 0.0
      - 0.0
      - 0.0
      - 0.0
      - 0.0
      - 0.0
      - 0.0
      - 0.0
      - 0.0
      - 0.0
      - 0.0
  bbox:
    center:
      position:
        x: 0.10120089680740423
        y: 0.0931186947780322
        z: 0.7337705676745103
      orientation:
        x: -0.5777337198535991
        y: 0.25345028844850814
        z: 0.6819931562328501
        w: -0.3699622076388973
    size:
      x: 0.19248300790786743
      y: 0.07278099656105042
      z: 0.07158300280570984
  id: ''
---
header:
  stamp:
    sec: 1749423598
    nanosec: 299948276
  frame_id: camera_color_optical_frame
detections:
- header:
    stamp:
      sec: 1749423598
      nanosec: 299948276
    frame_id: camera_color_optical_frame
  results:
  - hypothesis:
      class_id: OrangeJuice
      score: 0.0
    pose:
      pose:
        position:
          x: 0.10172410636606853
          y: 0.09426203619979465
          z: 0.7393897064275495
        orientation:
          x: -0.5799449041933545
          y: 0.25764273665096427
          z: 0.6778307299100658
          w: -0.37125413121034817
      covariance:
      - 0.0
      - 0.0
      - 0.0
      - 0.0
      - 0.0
      - 0.0
      - 0.0
      - 0.0
      - 0.0
      - 0.0
      - 0.0
      - 0.0
      - 0.0
      - 0.0
      - 0.0
      - 0.0
      - 0.0
      - 0.0
      - 0.0
      - 0.0
      - 0.0
      - 0.0
      - 0.0
      - 0.0
      - 0.0
      - 0.0
      - 0.0
      - 0.0
      - 0.0
      - 0.0
      - 0.0
      - 0.0
      - 0.0
      - 0.0
      - 0.0
      - 0.0
  bbox:
    center:
      position:
        x: 0.10172410636606853
        y: 0.09426203619979465
        z: 0.7393897064275495
      orientation:
        x: -0.5799449041933545
        y: 0.25764273665096427
        z: 0.6778307299100658
        w: -0.37125413121034817
    size:
      x: 0.19248300790786743
      y: 0.07278099656105042
      z: 0.07158300280570984
  id: ''
---
header:
  stamp:
    sec: 1749423599
    nanosec: 829291058
  frame_id: camera_color_optical_frame
detections:
- header:
    stamp:
      sec: 1749423599
      nanosec: 829291058
    frame_id: camera_color_optical_frame
  results:
  - hypothesis:
      class_id: OrangeJuice
      score: 0.0
    pose:
      pose:
        position:
          x: 0.10100622098130063
          y: 0.0930204792193653
          z: 0.7324731335376995
        orientation:
          x: -0.5765316583836961
          y: 0.25237866414590826
          z: 0.6821376031772541
          w: -0.3722963162547584
      covariance:
      - 0.0
      - 0.0
      - 0.0
      - 0.0
      - 0.0
      - 0.0
      - 0.0
      - 0.0
      - 0.0
      - 0.0
      - 0.0
      - 0.0
      - 0.0
      - 0.0
      - 0.0
      - 0.0
      - 0.0
      - 0.0
      - 0.0
      - 0.0
      - 0.0
      - 0.0
      - 0.0
      - 0.0
      - 0.0
      - 0.0
      - 0.0
      - 0.0
      - 0.0
      - 0.0
      - 0.0
      - 0.0
      - 0.0
      - 0.0
      - 0.0
      - 0.0
  bbox:
    center:
      position:
        x: 0.10100622098130063
        y: 0.0930204792193653
        z: 0.7324731335376995
      orientation:
        x: -0.5765316583836961
        y: 0.25237866414590826
        z: 0.6821376031772541
        w: -0.3722963162547584
    size:
      x: 0.19248300790786743
      y: 0.07278099656105042
      z: 0.07158300280570984
  id: ''
---
header:
  stamp:
    sec: 1749423600
    nanosec: 826733160
  frame_id: camera_color_optical_frame
detections:
- header:
    stamp:
      sec: 1749423600
      nanosec: 826733160
    frame_id: camera_color_optical_frame
  results:
  - hypothesis:
      class_id: OrangeJuice
      score: 0.0
    pose:
      pose:
        position:
          x: 0.10436499726111671
          y: 0.08760321530694068
          z: 0.7542188613033224
        orientation:
          x: -0.6167388634558313
          y: 0.2939131691720883
          z: 0.6682872962653481
          w: -0.29434726589655935
      covariance:
      - 0.0
      - 0.0
      - 0.0
      - 0.0
      - 0.0
      - 0.0
      - 0.0
      - 0.0
      - 0.0
      - 0.0
      - 0.0
      - 0.0
      - 0.0
      - 0.0
      - 0.0
      - 0.0
      - 0.0
      - 0.0
      - 0.0
      - 0.0
      - 0.0
      - 0.0
      - 0.0
      - 0.0
      - 0.0
      - 0.0
      - 0.0
      - 0.0
      - 0.0
      - 0.0
      - 0.0
      - 0.0
      - 0.0
      - 0.0
      - 0.0
      - 0.0
  bbox:
    center:
      position:
        x: 0.10436499726111671
        y: 0.08760321530694068
        z: 0.7542188613033224
      orientation:
        x: -0.6167388634558313
        y: 0.2939131691720883
        z: 0.6682872962653481
        w: -0.29434726589655935
    size:
      x: 0.19248300790786743
      y: 0.07278099656105042
      z: 0.07158300280570984
  id: ''
---
header:
  stamp:
    sec: 1749423601
    nanosec: 857272924
  frame_id: camera_color_optical_frame
detections:
- header:
    stamp:
      sec: 1749423601
      nanosec: 857272924
    frame_id: camera_color_optical_frame
  results:
  - hypothesis:
      class_id: OrangeJuice
      score: 0.0
    pose:
      pose:
        position:
          x: 0.1018484098406946
          y: 0.09387943521981444
          z: 0.736323056018004
        orientation:
          x: -0.5788513345283527
          y: 0.2545980312080265
          z: 0.6802783879146014
          w: -0.37058371517924693
      covariance:
      - 0.0
      - 0.0
      - 0.0
      - 0.0
      - 0.0
      - 0.0
      - 0.0
      - 0.0
      - 0.0
      - 0.0
      - 0.0
      - 0.0
      - 0.0
      - 0.0
      - 0.0
      - 0.0
      - 0.0
      - 0.0
      - 0.0
      - 0.0
      - 0.0
      - 0.0
      - 0.0
      - 0.0
      - 0.0
      - 0.0
      - 0.0
      - 0.0
      - 0.0
      - 0.0
      - 0.0
      - 0.0
      - 0.0
      - 0.0
      - 0.0
      - 0.0
  bbox:
    center:
      position:
        x: 0.1018484098406946
        y: 0.09387943521981444
        z: 0.736323056018004
      orientation:
        x: -0.5788513345283527
        y: 0.2545980312080265
        z: 0.6802783879146014
        w: -0.37058371517924693
    size:
      x: 0.19248300790786743
      y: 0.07278099656105042
      z: 0.07158300280570984
  id: ''
---
header:
  stamp:
    sec: 1749423602
    nanosec: 788083589
  frame_id: camera_color_optical_frame
detections:
- header:
    stamp:
      sec: 1749423602
      nanosec: 788083589
    frame_id: camera_color_optical_frame
  results:
  - hypothesis:
      class_id: OrangeJuice
      score: 0.0
    pose:
      pose:
        position:
          x: 0.10535586694090596
          y: 0.08844691495728871
          z: 0.7574008170407959
        orientation:
          x: -0.6161586905202701
          y: 0.2915376700421964
          z: 0.6676855021024821
          w: -0.29924960371714726
      covariance:
      - 0.0
      - 0.0
      - 0.0
      - 0.0
      - 0.0
      - 0.0
      - 0.0
      - 0.0
      - 0.0
      - 0.0
      - 0.0
      - 0.0
      - 0.0
      - 0.0
      - 0.0
      - 0.0
      - 0.0
      - 0.0
      - 0.0
      - 0.0
      - 0.0
      - 0.0
      - 0.0
      - 0.0
      - 0.0
      - 0.0
      - 0.0
      - 0.0
      - 0.0
      - 0.0
      - 0.0
      - 0.0
      - 0.0
      - 0.0
      - 0.0
      - 0.0
  bbox:
    center:
      position:
        x: 0.10535586694090596
        y: 0.08844691495728871
        z: 0.7574008170407959
      orientation:
        x: -0.6161586905202701
        y: 0.2915376700421964
        z: 0.6676855021024821
        w: -0.29924960371714726
    size:
      x: 0.19248300790786743
      y: 0.07278099656105042
      z: 0.07158300280570984
  id: ''
---
header:
  stamp:
    sec: 1749423604
    nanosec: 51245096
  frame_id: camera_color_optical_frame
detections:
- header:
    stamp:
      sec: 1749423604
      nanosec: 51245096
    frame_id: camera_color_optical_frame
  results:
  - hypothesis:
      class_id: OrangeJuice
      score: 0.0
    pose:
      pose:
        position:
          x: 0.10167588861739187
          y: 0.09346480289072762
          z: 0.7364338785305017
        orientation:
          x: -0.5756601657297573
          y: 0.25099403492377637
          z: 0.681319513698119
          w: -0.37605995303784895
      covariance:
      - 0.0
      - 0.0
      - 0.0
      - 0.0
      - 0.0
      - 0.0
      - 0.0
      - 0.0
      - 0.0
      - 0.0
      - 0.0
      - 0.0
      - 0.0
      - 0.0
      - 0.0
      - 0.0
      - 0.0
      - 0.0
      - 0.0
      - 0.0
      - 0.0
      - 0.0
      - 0.0
      - 0.0
      - 0.0
      - 0.0
      - 0.0
      - 0.0
      - 0.0
      - 0.0
      - 0.0
      - 0.0
      - 0.0
      - 0.0
      - 0.0
      - 0.0
  bbox:
    center:
      position:
        x: 0.10167588861739187
        y: 0.09346480289072762
        z: 0.7364338785305017
      orientation:
        x: -0.5756601657297573
        y: 0.25099403492377637
        z: 0.681319513698119
        w: -0.37605995303784895
    size:
      x: 0.19248300790786743
      y: 0.07278099656105042
      z: 0.07158300280570984
  id: ''
---
header:
  stamp:
    sec: 1749423605
    nanosec: 115063654
  frame_id: camera_color_optical_frame
detections:
- header:
    stamp:
      sec: 1749423605
      nanosec: 115063654
    frame_id: camera_color_optical_frame
  results:
  - hypothesis:
      class_id: OrangeJuice
      score: 0.0
    pose:
      pose:
        position:
          x: 0.10038739375116806
          y: 0.09234701138645093
          z: 0.7272714606027821
        orientation:
          x: -0.5788908343213606
          y: 0.24923321283236927
          z: 0.6832110201074473
          w: -0.368769453132598
      covariance:
      - 0.0
      - 0.0
      - 0.0
      - 0.0
      - 0.0
      - 0.0
      - 0.0
      - 0.0
      - 0.0
      - 0.0
      - 0.0
      - 0.0
      - 0.0
      - 0.0
      - 0.0
      - 0.0
      - 0.0
      - 0.0
      - 0.0
      - 0.0
      - 0.0
      - 0.0
      - 0.0
      - 0.0
      - 0.0
      - 0.0
      - 0.0
      - 0.0
      - 0.0
      - 0.0
      - 0.0
      - 0.0
      - 0.0
      - 0.0
      - 0.0
      - 0.0
  bbox:
    center:
      position:
        x: 0.10038739375116806
        y: 0.09234701138645093
        z: 0.7272714606027821
      orientation:
        x: -0.5788908343213606
        y: 0.24923321283236927
        z: 0.6832110201074473
        w: -0.368769453132598
    size:
      x: 0.19248300790786743
      y: 0.07278099656105042
      z: 0.07158300280570984
  id: ''
---
header:
  stamp:
    sec: 1749423606
    nanosec: 145471502
  frame_id: camera_color_optical_frame
detections:
- header:
    stamp:
      sec: 1749423606
      nanosec: 145471502
    frame_id: camera_color_optical_frame
  results:
  - hypothesis:
      class_id: OrangeJuice
      score: 0.0
    pose:
      pose:
        position:
          x: 0.10139639186356271
          y: 0.0933029724309269
          z: 0.7339426191868172
        orientation:
          x: -0.5808139305302729
          y: 0.25456167735464125
          z: 0.6800391066197958
          w: -0.3679678572811993
      covariance:
      - 0.0
      - 0.0
      - 0.0
      - 0.0
      - 0.0
      - 0.0
      - 0.0
      - 0.0
      - 0.0
      - 0.0
      - 0.0
      - 0.0
      - 0.0
      - 0.0
      - 0.0
      - 0.0
      - 0.0
      - 0.0
      - 0.0
      - 0.0
      - 0.0
      - 0.0
      - 0.0
      - 0.0
      - 0.0
      - 0.0
      - 0.0
      - 0.0
      - 0.0
      - 0.0
      - 0.0
      - 0.0
      - 0.0
      - 0.0
      - 0.0
      - 0.0
  bbox:
    center:
      position:
        x: 0.10139639186356271
        y: 0.0933029724309269
        z: 0.7339426191868172
      orientation:
        x: -0.5808139305302729
        y: 0.25456167735464125
        z: 0.6800391066197958
        w: -0.3679678572811993
    size:
      x: 0.19248300790786743
      y: 0.07278099656105042
      z: 0.07158300280570984
  id: ''
---
header:
  stamp:
    sec: 1749423607
    nanosec: 275629971
  frame_id: camera_color_optical_frame
detections:
- header:
    stamp:
      sec: 1749423607
      nanosec: 275629971
    frame_id: camera_color_optical_frame
  results:
  - hypothesis:
      class_id: OrangeJuice
      score: 0.0
    pose:
      pose:
        position:
          x: 0.10542922355438854
          y: 0.08854875132660112
          z: 0.7595561379137298
        orientation:
          x: -0.6136455779203791
          y: 0.2911742749985621
          z: 0.6681904945736254
          w: -0.3036084801834093
      covariance:
      - 0.0
      - 0.0
      - 0.0
      - 0.0
      - 0.0
      - 0.0
      - 0.0
      - 0.0
      - 0.0
      - 0.0
      - 0.0
      - 0.0
      - 0.0
      - 0.0
      - 0.0
      - 0.0
      - 0.0
      - 0.0
      - 0.0
      - 0.0
      - 0.0
      - 0.0
      - 0.0
      - 0.0
      - 0.0
      - 0.0
      - 0.0
      - 0.0
      - 0.0
      - 0.0
      - 0.0
      - 0.0
      - 0.0
      - 0.0
      - 0.0
      - 0.0
  bbox:
    center:
      position:
        x: 0.10542922355438854
        y: 0.08854875132660112
        z: 0.7595561379137298
      orientation:
        x: -0.6136455779203791
        y: 0.2911742749985621
        z: 0.6681904945736254
        w: -0.3036084801834093
    size:
      x: 0.19248300790786743
      y: 0.07278099656105042
      z: 0.07158300280570984
  id: ''
---
